{
"type": "FeatureCollection",
"name": "shape_stops_POSB-POSD-alsac-LYH",
"crs": { "type": "name", "properties": { "name": "urn:ogc:def:crs:OGC:1.3:CRS84" } },
"features": [
{ "type": "Feature", "properties": { "name": "Chèques Postaux - M. Ricoud - Quai B", "id": "ORLEANS:StopArea:00007921" }, "geometry": { "type": "Point", "coordinates": [ 1.932898, 47.836212 ] } },
{ "type": "Feature", "properties": { "name": "Chèques Postaux - M. Ricoud - Quai D", "id": "ORLEANS:StopArea:00007924" }, "geometry": { "type": "Point", "coordinates": [ 1.933055, 47.836391 ] } },
{ "type": "Feature", "properties": { "name": "Senghor", "id": "ORLEANS:StopArea:00046450" }, "geometry": { "type": "Point", "coordinates": [ 1.930345, 47.838467 ] } },
{ "type": "Feature", "properties": { "name": "Flammarion", "id": "ORLEANS:StopArea:00016001" }, "geometry": { "type": "Point", "coordinates": [ 1.929517, 47.841278 ] } },
{ "type": "Feature", "properties": { "name": "Alsace", "id": "ORLEANS:StopArea:01071001" }, "geometry": { "type": "Point", "coordinates": [ 1.923797, 47.841255 ] } },
{ "type": "Feature", "properties": { "name": "Artois", "id": "ORLEANS:StopArea:01071101" }, "geometry": { "type": "Point", "coordinates": [ 1.917767, 47.841328 ] } },
{ "type": "Feature", "properties": { "name": "Provinces", "id": "ORLEANS:StopArea:01071201" }, "geometry": { "type": "Point", "coordinates": [ 1.916199, 47.844185 ] } },
{ "type": "Feature", "properties": { "name": "Belle Croix", "id": "ORLEANS:StopArea:00002700" }, "geometry": { "type": "Point", "coordinates": [ 1.909331, 47.848122 ] } },
{ "type": "Feature", "properties": { "name": "Foch", "id": "ORLEANS:StopArea:00008701" }, "geometry": { "type": "Point", "coordinates": [ 1.90947, 47.846024 ] } },
{ "type": "Feature", "properties": { "name": "Marcel Belot", "id": "ORLEANS:StopArea:00032200" }, "geometry": { "type": "Point", "coordinates": [ 1.90895, 47.84967 ] } },
{ "type": "Feature", "properties": { "name": "Pressoir Aubry", "id": "ORLEANS:StopArea:00041500" }, "geometry": { "type": "Point", "coordinates": [ 1.906091, 47.853111 ] } },
{ "type": "Feature", "properties": { "name": "Victor Hugo - Quai C", "id": "ORLEANS:StopArea:01000903" }, "geometry": { "type": "Point", "coordinates": [ 1.905176, 47.857281 ] } },
{ "type": "Feature", "properties": { "name": "Guynemer", "id": "ORLEANS:StopArea:00019140" }, "geometry": { "type": "Point", "coordinates": [ 1.900723, 47.860485 ] } },
{ "type": "Feature", "properties": { "name": "Place de la République", "id": "ORLEANS:StopArea:00038761" }, "geometry": { "type": "Point", "coordinates": [ 1.9007, 47.863384 ] } },
{ "type": "Feature", "properties": { "name": "Paul Genain", "id": "ORLEANS:StopArea:00036720" }, "geometry": { "type": "Point", "coordinates": [ 1.900057, 47.866634 ] } },
{ "type": "Feature", "properties": { "name": "Mairie d'Olivet", "id": "ORLEANS:StopArea:00031102" }, "geometry": { "type": "Point", "coordinates": [ 1.897645, 47.866077 ] } },
{ "type": "Feature", "properties": { "name": "Église St-Martin", "id": "ORLEANS:StopArea:01037004" }, "geometry": { "type": "Point", "coordinates": [ 1.891956, 47.866718 ] } },
{ "type": "Feature", "properties": { "name": "Charles Rivière", "id": "ORLEANS:StopArea:00006830" }, "geometry": { "type": "Point", "coordinates": [ 1.888193, 47.866543 ] } },
{ "type": "Feature", "properties": { "name": "Navrin", "id": "ORLEANS:StopArea:00035170" }, "geometry": { "type": "Point", "coordinates": [ 1.881618, 47.867104 ] } },
{ "type": "Feature", "properties": { "name": "La Mothe", "id": "ORLEANS:StopArea:00024600" }, "geometry": { "type": "Point", "coordinates": [ 1.876918, 47.867664 ] } },
{ "type": "Feature", "properties": { "name": "Lycée Hôtelier", "id": "ORLEANS:StopArea:01037402" }, "geometry": { "type": "Point", "coordinates": [ 1.877433, 47.866276 ] } },
{ "type": "Feature", "properties": { "name": "Chèques Postaux - M. Ricoud - Quai B", "id": "ORLEANS:StopArea:00007921" }, "geometry": { "type": "Point", "coordinates": [ 1.932898, 47.836212 ] } },
{ "type": "Feature", "properties": { "name": "Chèques Postaux - M. Ricoud - Quai D", "id": "ORLEANS:StopArea:00007924" }, "geometry": { "type": "Point", "coordinates": [ 1.933055, 47.836391 ] } },
{ "type": "Feature", "properties": { "name": "Senghor", "id": "ORLEANS:StopArea:00046450" }, "geometry": { "type": "Point", "coordinates": [ 1.930345, 47.838467 ] } },
{ "type": "Feature", "properties": { "name": "Flammarion", "id": "ORLEANS:StopArea:00016001" }, "geometry": { "type": "Point", "coordinates": [ 1.929517, 47.841278 ] } },
{ "type": "Feature", "properties": { "name": "Alsace", "id": "ORLEANS:StopArea:01071001" }, "geometry": { "type": "Point", "coordinates": [ 1.923797, 47.841255 ] } },
{ "type": "Feature", "properties": { "name": "Artois", "id": "ORLEANS:StopArea:01071101" }, "geometry": { "type": "Point", "coordinates": [ 1.917767, 47.841328 ] } },
{ "type": "Feature", "properties": { "name": "Provinces", "id": "ORLEANS:StopArea:01071201" }, "geometry": { "type": "Point", "coordinates": [ 1.916199, 47.844185 ] } },
{ "type": "Feature", "properties": { "name": "Belle Croix", "id": "ORLEANS:StopArea:00002700" }, "geometry": { "type": "Point", "coordinates": [ 1.909331, 47.848122 ] } },
{ "type": "Feature", "properties": { "name": "Foch", "id": "ORLEANS:StopArea:00008701" }, "geometry": { "type": "Point", "coordinates": [ 1.90947, 47.846024 ] } },
{ "type": "Feature", "properties": { "name": "Marcel Belot", "id": "ORLEANS:StopArea:00032200" }, "geometry": { "type": "Point", "coordinates": [ 1.90895, 47.84967 ] } },
{ "type": "Feature", "properties": { "name": "Pressoir Aubry", "id": "ORLEANS:StopArea:00041500" }, "geometry": { "type": "Point", "coordinates": [ 1.906091, 47.853111 ] } },
{ "type": "Feature", "properties": { "name": "Victor Hugo - Quai C", "id": "ORLEANS:StopArea:01000903" }, "geometry": { "type": "Point", "coordinates": [ 1.905176, 47.857281 ] } },
{ "type": "Feature", "properties": { "name": "Guynemer", "id": "ORLEANS:StopArea:00019140" }, "geometry": { "type": "Point", "coordinates": [ 1.900723, 47.860485 ] } },
{ "type": "Feature", "properties": { "name": "Place de la République", "id": "ORLEANS:StopArea:00038761" }, "geometry": { "type": "Point", "coordinates": [ 1.9007, 47.863384 ] } },
{ "type": "Feature", "properties": { "name": "Paul Genain", "id": "ORLEANS:StopArea:00036720" }, "geometry": { "type": "Point", "coordinates": [ 1.900057, 47.866634 ] } },
{ "type": "Feature", "properties": { "name": "Mairie d'Olivet", "id": "ORLEANS:StopArea:00031102" }, "geometry": { "type": "Point", "coordinates": [ 1.897645, 47.866077 ] } },
{ "type": "Feature", "properties": { "name": "Église St-Martin", "id": "ORLEANS:StopArea:01037004" }, "geometry": { "type": "Point", "coordinates": [ 1.891956, 47.866718 ] } },
{ "type": "Feature", "properties": { "name": "Charles Rivière", "id": "ORLEANS:StopArea:01037103" }, "geometry": { "type": "Point", "coordinates": [ 1.885647, 47.866745 ] } },
{ "type": "Feature", "properties": { "name": "Navrin", "id": "ORLEANS:StopArea:00035170" }, "geometry": { "type": "Point", "coordinates": [ 1.881618, 47.867104 ] } },
{ "type": "Feature", "properties": { "name": "La Mothe", "id": "ORLEANS:StopArea:00024600" }, "geometry": { "type": "Point", "coordinates": [ 1.876918, 47.867664 ] } },
{ "type": "Feature", "properties": { "name": "Lycée Hôtelier", "id": "ORLEANS:StopArea:01037402" }, "geometry": { "type": "Point", "coordinates": [ 1.877433, 47.866276 ] } },
{ "type": "Feature", "properties": { "name": "POSB-POSD-alsac-LYH", "id": "102" }, "geometry": { "type": "LineString", "coordinates": [ [ 1.933066, 47.836189 ], [ 1.933171, 47.836281 ], [ 1.933143, 47.836334 ], [ 1.932714, 47.836441 ], [ 1.932725, 47.836548 ], [ 1.932725, 47.836548 ], [ 1.932711, 47.836548 ], [ 1.932563, 47.836617 ], [ 1.932417, 47.836571 ], [ 1.932324, 47.836525 ], [ 1.929834, 47.837376 ], [ 1.930041, 47.837711 ], [ 1.930061, 47.838043 ], [ 1.931871, 47.840439 ], [ 1.928452, 47.841576 ], [ 1.927792, 47.841831 ], [ 1.927185, 47.842087 ], [ 1.926645, 47.842354 ], [ 1.926012, 47.842617 ], [ 1.925258, 47.842842 ], [ 1.925003, 47.842896 ], [ 1.924765, 47.842773 ], [ 1.924811, 47.842487 ], [ 1.924844, 47.84219 ], [ 1.92489, 47.841869 ], [ 1.924962, 47.841618 ], [ 1.924951, 47.841492 ], [ 1.924658, 47.841461 ], [ 1.923221, 47.841133 ], [ 1.921575, 47.841164 ], [ 1.916317, 47.841358 ], [ 1.915553, 47.841469 ], [ 1.915161, 47.841686 ], [ 1.91487, 47.842171 ], [ 1.914323, 47.843399 ], [ 1.914374, 47.843544 ], [ 1.914533, 47.843636 ], [ 1.916072, 47.843559 ], [ 1.916242, 47.844379 ], [ 1.916312, 47.844868 ], [ 1.916468, 47.845093 ], [ 1.916762, 47.845131 ], [ 1.916892, 47.845287 ], [ 1.916835, 47.845493 ], [ 1.916606, 47.845535 ], [ 1.916367, 47.845478 ], [ 1.916274, 47.845432 ], [ 1.914397, 47.845715 ], [ 1.913294, 47.846035 ], [ 1.9127, 47.84631 ], [ 1.911969, 47.846745 ], [ 1.911539, 47.846848 ], [ 1.911149, 47.846924 ], [ 1.910775, 47.846931 ], [ 1.910376, 47.846828 ], [ 1.909554, 47.846497 ], [ 1.908731, 47.846191 ], [ 1.907881, 47.845905 ], [ 1.907322, 47.845783 ], [ 1.907067, 47.845806 ], [ 1.906904, 47.84594 ], [ 1.9069, 47.84613 ], [ 1.907938, 47.847038 ], [ 1.908503, 47.84753 ], [ 1.908976, 47.847939 ], [ 1.909869, 47.848057 ], [ 1.910119, 47.847637 ], [ 1.909795, 47.846443 ], [ 1.909283, 47.845989 ], [ 1.909005, 47.84586 ], [ 1.909009, 47.845661 ], [ 1.909209, 47.845684 ], [ 1.909233, 47.845837 ], [ 1.909746, 47.846264 ], [ 1.909954, 47.846546 ], [ 1.910199, 47.847626 ], [ 1.903085, 47.856724 ], [ 1.903123, 47.856823 ], [ 1.904895, 47.857796 ], [ 1.905207, 47.857597 ], [ 1.905169, 47.856834 ], [ 1.904943, 47.85675 ], [ 1.904741, 47.856819 ], [ 1.904166, 47.857452 ], [ 1.903175, 47.856888 ], [ 1.902907, 47.856903 ], [ 1.902055, 47.858009 ], [ 1.901656, 47.858547 ], [ 1.900976, 47.859737 ], [ 1.900284, 47.86216 ], [ 1.900521, 47.86301 ], [ 1.901072, 47.864147 ], [ 1.901487, 47.864162 ], [ 1.902624, 47.865452 ], [ 1.90285, 47.866173 ], [ 1.902987, 47.866661 ], [ 1.901701, 47.866737 ], [ 1.901559, 47.866486 ], [ 1.901522, 47.866348 ], [ 1.900717, 47.866478 ], [ 1.899776, 47.866703 ], [ 1.899173, 47.866749 ], [ 1.898249, 47.866787 ], [ 1.898024, 47.866684 ], [ 1.897455, 47.865707 ], [ 1.893563, 47.866364 ], [ 1.890944, 47.866844 ], [ 1.889404, 47.866947 ], [ 1.888084, 47.866737 ], [ 1.886211, 47.866737 ], [ 1.886086, 47.865063 ], [ 1.886015, 47.864647 ], [ 1.886163, 47.864567 ], [ 1.886349, 47.864639 ], [ 1.886167, 47.865051 ], [ 1.886212, 47.865433 ], [ 1.886185, 47.866726 ], [ 1.884392, 47.866772 ], [ 1.876829, 47.867653 ], [ 1.876629, 47.866985 ], [ 1.876589, 47.866356 ] ] } }
]
}
